[{"code":"1125899906842653","title":"Абакан","kladr_code":"1900000100000","addr":"г.Абакан, ул. Игарская, д 5 \"В\"","coords":{"lat":"53.710762","lng":"91.390152"},"city":"Абакан"},{"code":"2252083356639110","title":"Алексеевка","kladr_code":null,"addr":"г. Старый Оскол, микрорайон Макаренко, 29 второе карэ","coords":{"lat":"50.639591","lng":"38.708797"},"city":"Алексеевка"},{"code":"1125899906842709","title":"Альметьевск","kladr_code":"1600800100000","addr":"г.Альметьевск, ул. Тухватуллина, база «Смарт»","coords":{"lat":"54.894080","lng":"52.318130"},"city":"Альметьевск"},{"code":"1125900209901135","title":"Ангарск","kladr_code":null,"addr":"г.Ангарск, ул. Московский тракт, ст.3, склад 7","coords":{"lat":"52.548760","lng":"103.906590"},"city":"Ангарск"},{"code":"1125899906842711","title":"Армавир","kladr_code":"2300000200000","addr":"г.Армавир, ул. Мичурина, д. 4","coords":{"lat":"44.984230","lng":"41.099780"},"city":"Армавир"},{"code":"1125899906842651","title":"Архангельск","kladr_code":"2900000100000","addr":"г.Архангельск, Окружное шоссе, д. 12","coords":{"lat":"64.558650","lng":"40.574070"},"city":"Архангельск"},{"code":"1125899906842676","title":"Астрахань","kladr_code":"3000000100000","addr":"г. Астрахань, Кулаковский промузел, ул. Широкая, д.1","coords":{"lat":"46.328637","lng":"48.070670"},"city":"Астрахань"},{"code":"1125900209901076","title":"Ахтубинск","kladr_code":null,"addr":"г. Ахтубинск, ул. Добролюбова, тер. ТЦ \"ВОСЬМОЙ\" павильон \"турагенство ПЕГАС туристик\"","coords":{"lat":"48.289058","lng":"46.167698"},"city":"Ахтубинск"},{"code":"1125899906842662","title":"Ачинск","kladr_code":"2400001200000","addr":"улица 5 Июля, Ачинск, Красноярский край, Россия","coords":{"lat":"56.240730","lng":"90.480244"},"city":"Ачинск"},{"code":"1125899906842714","title":"Балаково","kladr_code":"6400000400000","addr":"г.Балаково, ул. Привокзальная, д. 73","coords":{"lat":"51.991470","lng":"47.808060"},"city":"Балаково"},{"code":"1125899906842658","title":"Барнаул","kladr_code":"2200000100000","addr":"улица Попова, 179Б, Барнаул, Алтайский край, Россия, 656922","coords":{"lat":"53.321355","lng":"83.641864"},"city":"Барнаул"},{"code":"1125899906842697","title":"Белгород","kladr_code":"3100000100000","addr":"г.Белгород, ул. Дзгоева, д. 6","coords":{"lat":"50.589670","lng":"36.651760"},"city":"Белгород"},{"code":"1125899906842636","title":"Белогорск","kladr_code":"2800000300000","addr":"г.Белогорск, ул. Кирова, д. 306","coords":{"lat":"50.898940","lng":"128.535030"},"city":"Белогорск"},{"code":"1125899906842696","title":"Березники","kladr_code":"5900000200000","addr":"г.Березники, ул. Уральских Танкистов, д. 15, оф.205","coords":{"lat":"59.417800","lng":"56.803090"},"city":"Березники"},{"code":"1125899906842643","title":"Бийск","kladr_code":"2200000400000","addr":"г.Бийск, ул. Мерлина, д. 57\/7","coords":{"lat":"52.513110","lng":"85.167790"},"city":"Бийск"},{"code":"1125899906842670","title":"Биробиджан","kladr_code":"7900000100000","addr":"г.Биробиджан, ул. Биршоссе 2 км, д. 23а","coords":{"lat":"48.785020","lng":"132.903090"},"city":"Биробиджан"},{"code":"1125899906842625","title":"Благовещенск","kladr_code":"0201500100000","addr":"г.Благовещенск, ул. Калинина, д. 126","coords":{"lat":"50.288500","lng":"127.524830"},"city":"Благовещенск"},{"code":"1125899906842667","title":"Братск","kladr_code":"3800000500000","addr":"г.Братск, Район Падунского хлебозавода, тер. ЗАО ПИК «БАЗА»","coords":{"lat":"56.307420","lng":"101.696880"},"city":"Братск"},{"code":"1125899906842717","title":"Брянск","kladr_code":"3200000100000","addr":"г.Брянск, с.Супонево, пер.Комсомольский, 9","coords":{"lat":"53.215660","lng":"34.319970"},"city":"Брянск"},{"code":"1125899906842734","title":"Великий Новгород","kladr_code":"5300000100000","addr":"г.Великий Новгород, ул. Б. Санкт-Петербургская, д. 39","coords":{"lat":"58.538470","lng":"31.260860"},"city":"Великий Новгород"},{"code":"1125899906842626","title":"Владивосток","kladr_code":"2500000100000","addr":"г.Владивосток, ул. Снеговая, д. 34, лит.Ж","coords":{"lat":"43.135990","lng":"131.961480"},"city":"Владивосток"},{"code":"2252083294050363","title":"Владикавказ","kladr_code":null,"addr":"г. Владикавказ, ул. Чапаева, д. 21","coords":{"lat":"43.046980","lng":"44.670640"},"city":"Владикавказ"},{"code":"1125899906842721","title":"Владимир","kladr_code":"3300000100000","addr":"г.Владимир, ул. Полины Осипенко, д. 57","coords":{"lat":"56.153549","lng":"40.414477"},"city":"Владимир"},{"code":"1125899906842650","title":"Волгоград","kladr_code":"3400000100000","addr":"г.Волгоград, Тайшетский проезд, д. 10","coords":{"lat":"48.752116","lng":"44.468059"},"city":"Волгоград"},{"code":"1125900209900742","title":"Волгодонск","kladr_code":null,"addr":"г. Волгодонск, пер. Маяковского 15","coords":{"lat":"47.512027","lng":"42.147007"},"city":"Волгодонск"},{"code":"1125899906842710","title":"Волжский","kladr_code":"3400000200000","addr":"г.Волжский, 1-й Базовый пр-д, д. 5, офис 1.1","coords":{"lat":"48.822951","lng":"44.741971"},"city":"Волжский"},{"code":"1125899906842661","title":"Вологда","kladr_code":"3500000100000","addr":"г.Вологда, ул. Чехова, д. 44, «Грузовой двор»","coords":{"lat":"59.206870","lng":"39.892740"},"city":"Вологда"},{"code":"2252083282198131","title":"Воркута","kladr_code":null,"addr":"","coords":{"lat":"67.469200","lng":"64.032097"},"city":"Воркута"},{"code":"1125899906842652","title":"Воронеж","kladr_code":"3600000100000","addr":"г. Воронеж, ул. Проспект Патриотов, д. 49 «З»","coords":{"lat":"51.642790","lng":"39.108500"},"city":"Воронеж"},{"code":"2252083298333337","title":"Воскресенск","kladr_code":null,"addr":"109390, г. Москва, ул.Люблинская,дом 47, помещение 7","coords":{"lat":"55.323841","lng":"38.681515"},"city":"Воскресенск"},{"code":"2252083356683183","title":"Выборг","kladr_code":null,"addr":"","coords":{"lat":"60.713951","lng":"28.757156"},"city":"Выборг"},{"code":"1125899906842693","title":"Глазов","kladr_code":"1800000400000","addr":"г.Глазов, ул. Глинки, д. 2","coords":{"lat":"58.151640","lng":"52.640060"},"city":"Глазов"},{"code":"2252083294158599","title":"Грозный","kladr_code":null,"addr":"г. Грозный, п-т. А. Кадырова, д. 157","coords":{"lat":"43.296520","lng":"45.713520"},"city":"Грозный"},{"code":"2252079029287689","title":"Димитровград","kladr_code":"7300000100300","addr":"г.Димитровград, пр.Автостроителей, д. 67","coords":{"lat":"54.209890","lng":"49.586390"},"city":"Димитровград"},{"code":"1010005883","title":"Екатеринбург-Терминал","kladr_code":"6600000100000","addr":"г. Екатеринбург, ул. Труда, д. 10","coords":{"lat":"56.857530","lng":"60.535380"},"city":"Екатеринбург"},{"code":"1125900175704761","title":"Елец","kladr_code":null,"addr":"г.Елец, Московское шоссе, д. 8","coords":{"lat":"52.634360","lng":"38.458250"},"city":"Елец"},{"code":"1125900209900358","title":"Златоуст","kladr_code":null,"addr":"","coords":{"lat":"55.170950","lng":"59.673300"},"city":"Златоуст"},{"code":"1125899906842715","title":"Иваново","kladr_code":"3700000100000","addr":"г. Иваново, пл. Генкиной, д. 1, склад 7","coords":{"lat":"57.015988","lng":"40.988794"},"city":"Иваново"},{"code":"1125899906842677","title":"Ижевск","kladr_code":"1800000100000","addr":"г.Ижевск, ул. Маяковского, д. 33, офис 201","coords":{"lat":"56.816260","lng":"53.202090"},"city":"Ижевск"},{"code":"2252083293455955","title":"Инта","kladr_code":null,"addr":"","coords":{"lat":"66.039513","lng":"60.130741"},"city":"Инта"},{"code":"1125899906842628","title":"Иркутск","kladr_code":"3800000300000","addr":"г.Иркутск, ул. Трактовая, д. 3Б","coords":{"lat":"52.317230","lng":"104.244400"},"city":"Иркутск"},{"code":"1125900206756114","title":"Ишимбай","kladr_code":null,"addr":"","coords":{"lat":"53.450000","lng":"56.033330"},"city":"Ишимбай"},{"code":"1125899906842687","title":"Йошкар-Ола","kladr_code":"1200000100000","addr":"г.Йошкар-Ола, Кокшайский пр-д, д. 46","coords":{"lat":"56.606530","lng":"47.879680"},"city":"Йошкар-Ола"},{"code":"1125899906842642","title":"Казань","kladr_code":"1600000100000","addr":"улица Родины, 7\/7, Казань, Республика Татарстан, Россия, 420087","coords":{"lat":"55.769206","lng":"49.193846"},"city":"Казань"},{"code":"1125899906842706","title":"Калининград","kladr_code":"3900000100000","addr":"","coords":{"lat":"54.716667","lng":"20.516666"},"city":"Калининград"},{"code":"1125899906842720","title":"Калуга","kladr_code":"4000000100000","addr":"г.Калуга, ул. Московская, д. 300","coords":{"lat":"54.561770","lng":"36.260350"},"city":"Калуга"},{"code":"1125900209900225","title":"Камышин","kladr_code":null,"addr":"Тургенева ул., 28, Камышин, Волгоградская обл., Россия, 403886","coords":{"lat":"50.092239","lng":"45.412208"},"city":"Камышин"},{"code":"2252083286418557","title":"Карасук","kladr_code":null,"addr":"г.Карасук, ул. Кутузова, д. 1 «А»","coords":{"lat":"53.726600","lng":"78.042660"},"city":"Карасук"},{"code":"1125899906842663","title":"Кемерово","kladr_code":"4200000900000","addr":"г.Кемерово, ул. Тухачевского, д. 54 «Б», корп.2","coords":{"lat":"55.314070","lng":"86.142950"},"city":"Кемерово"},{"code":"1125900177694287","title":"Кипарисово","kladr_code":null,"addr":"с.Кипарисово, ул.Карьерная 2, (423) 2600505\/г. Владивосток, ул. Снеговая 34, (423) 2465747","coords":{"lat":"43.477844","lng":"131.925110"},"city":"Кипарисово"},{"code":"1125899906842638","title":"Киров","kladr_code":"4001100100000","addr":"г.Киров, ул. Потребкооперации, д. 17","coords":{"lat":"58.565160","lng":"49.622110"},"city":"Киров"},{"code":"1125900209900130","title":"Киселевск","kladr_code":null,"addr":"В Киселевске прием\/выдача груза осуществляется путем адресной автодоставки от грузоотправителя (или до грузополучателя) по предварительному согласованию. Максимальные размеры одного места вес 2500кг. Длинна 5м высота 2м ширина 2м.","coords":{"lat":"54.013230","lng":"86.677510"},"city":"Киселевск"},{"code":"2252083356628762","title":"Клин","kladr_code":null,"addr":"141607 г. Клин ул. Волоколамское шоссе, д.31 Бывшая территория « Клинской Сельхозтехники»","coords":{"lat":"56.333332","lng":"36.733334"},"city":"Клин"},{"code":"1125900209900120","title":"Клинцы","kladr_code":null,"addr":"г.Клинцы, ул. Богунского полка, д. 71","coords":{"lat":"52.751590","lng":"32.229210"},"city":"Клинцы"},{"code":"2252083294101137","title":"Когалым","kladr_code":null,"addr":"г. Когалым, п-т Нефтяников, д. 7, корп. Б","coords":{"lat":"62.259290","lng":"74.544340"},"city":"Когалым"},{"code":"1125899906842704","title":"Комсомольск-на-А","kladr_code":"2701800008700","addr":"г.Комсомольск-на-Амуре, ул. Краснофлотская, д. 4","coords":{"lat":"50.546730","lng":"137.034420"},"city":"Комсомольск-на-Амуре"},{"code":"1125899906842680","title":"Кострома","kladr_code":"4400100100000","addr":"г.Кострома, ул. Льняная, д. 1Ж","coords":{"lat":"57.750410","lng":"40.984684"},"city":"Кострома"},{"code":"1125899906842673","title":"Краснодар","kladr_code":"2300000100000","addr":"г.Краснодар, ул. Новороссийская, д. 216","coords":{"lat":"45.035390","lng":"39.043950"},"city":"Краснодар"},{"code":"1125899906842637","title":"Красноярск","kladr_code":"2400000100000","addr":"улица Красной Звезды, 1 строение 22, Красноярск, Красноярский край, Россия, 660001","coords":{"lat":"56.001754","lng":"92.818472"},"city":"Красноярск"},{"code":"2252083321949707","title":"Куйбышев","kladr_code":null,"addr":"улица Гуляева, 59, Куйбышев, Новосибирская область, Россия, 632382","coords":{"lat":"55.435004","lng":"78.328567"},"city":"Куйбышев"},{"code":"1125899906842657","title":"Курган","kladr_code":"4500000100000","addr":"г.Курган, пр.Машиностроителей, д. 27","coords":{"lat":"55.474770","lng":"65.319930"},"city":"Курган"},{"code":"1125899906842698","title":"Курск","kladr_code":"4600000100000","addr":"г.Курск, ул. Нижняя Казацкая, д. 164","coords":{"lat":"51.756830","lng":"36.160410"},"city":"Курск"},{"code":"1125900177694286","title":"Лабытнанги","kladr_code":"8900000300000","addr":"г.Лабытнанги, ул. Пристанская, д. 6 склад № 6","coords":{"lat":"66.658695","lng":"66.429144"},"city":"Лабытнанги"},{"code":"1125899906842678","title":"Липецк","kladr_code":"4800000100000","addr":"г.Липецк, ул. Боевой пр-д, д. 5a","coords":{"lat":"52.629070","lng":"39.550620"},"city":"Липецк"},{"code":"1125899906842723","title":"Магадан","kladr_code":"4900000100000","addr":"г.Магадан, пер.Марчеканский, д. 25","coords":{"lat":"59.544380","lng":"150.807740"},"city":"Магадан"},{"code":"1125899906842644","title":"Магнитогорск","kladr_code":"7400000900000","addr":"г.Магнитогорск, ул. Калмыкова, д. 66\/2","coords":{"lat":"53.343870","lng":"58.997770"},"city":"Магнитогорск"},{"code":"1125900168096700","title":"Махачкала","kladr_code":"0500000100000","addr":"г.Махачкала, ул. Даниялова, д. 91а","coords":{"lat":"42.976280","lng":"47.522490"},"city":"Махачкала"},{"code":"1125899906842727","title":"Миасс","kladr_code":"7400001000000","addr":"г.Миасс, ул. 60 лет Октября, д. 13а","coords":{"lat":"55.013040","lng":"60.098220"},"city":"Миасс"},{"code":"2252083286402331","title":"Москва-Варшавское","kladr_code":"7700000000000","addr":"г. Москва, 1-ый Варшавский проезд, д. 2, стр. 9А","coords":{"lat":"55.644380","lng":"37.625730"},"city":"Москва"},{"code":"1010008024","title":"Москва-Восточный","kladr_code":"7700000000000","addr":"г. Москва, Тюменский проезд, д.3, стр.8","coords":{"lat":"55.811520","lng":"37.740910"},"city":"Москва"},{"code":"2252083291084474","title":"Москва-Лобня","kladr_code":"7700000000000","addr":"г. Лобня, Букинское шоссе, д. 39","coords":{"lat":"56.021370","lng":"37.473190"},"city":"Москва"},{"code":"1010000415","title":"Москва-Митино","kladr_code":"7700000000000","addr":"Заводская улица, 22, Хлюпино, Россия","coords":{"lat":"55.673351","lng":"36.956766"},"city":"Москва"},{"code":"2252079008041703","title":"Москва-Перово","kladr_code":"7700000000000","addr":"г. Москва, Кусковский тупик, д. 4","coords":{"lat":"55.735720","lng":"37.767720"},"city":"Москва"},{"code":"1125904205076432","title":"Москва-Рябиновая","kladr_code":"7700000000000","addr":"г. Москва, ул. Рябиновая, д.44, стр.33","coords":{"lat":"55.675550","lng":"37.433170"},"city":"Москва"},{"code":"2252083286487775","title":"Москва-Северный","kladr_code":"7700000000000","addr":"г. Москва, ул. Вилюйская, владение 1А, строение 1","coords":{"lat":"55.882610","lng":"37.627580"},"city":"Москва"},{"code":"2252083286846980","title":"Москва-Сортировочная","kladr_code":"3300200100000","addr":"г.Александров, Южный проезд, д. 6","coords":{"lat":"56.372380","lng":"38.693710"},"city":"Александров"},{"code":"1125899906842731","title":"Мурманск","kladr_code":"5100000100000","addr":"г.Мурманск, ул. Свердлова, д. 11Б","coords":{"lat":"68.993190","lng":"33.116530"},"city":"Мурманск"},{"code":"1125899906842690","title":"Набережные Челны","kladr_code":"1600000200000","addr":"г. Набережные Челны, Автодорога №1, пос. З.Я.Б., база Комбат","coords":{"lat":"55.696510","lng":"52.348040"},"city":"Набережные Челны"},{"code":"2252083356717973","title":"Назрань","kladr_code":null,"addr":"Назрань","coords":{"lat":"43.214882","lng":"44.776352"},"city":"Назрань"},{"code":"1125900209899520","title":"Нальчик","kladr_code":null,"addr":"г. Нальчик, ул. Калюжного, 100","coords":{"lat":"43.500777","lng":"43.595031"},"city":"Нальчик"},{"code":"1125899906842639","title":"Находка","kladr_code":"2500000400000","addr":"г.Находка, ул. Сидоренко, д. 1","coords":{"lat":"42.848050","lng":"132.889420"},"city":"Находка"},{"code":"1125899906842691","title":"Нерюнгри","kladr_code":"1400000200000","addr":"680013, Хабаровский край, г.Хабаровск, ул.Синельникова д.1","coords":{"lat":"56.692261","lng":"124.907310"},"city":"Нерюнгри"},{"code":"1125899906842703","title":"Нефтекамск","kladr_code":"0200000300000","addr":"г.Нефтекамск, ул. Высоковольтная, д. 1Б","coords":{"lat":"56.103690","lng":"54.242170"},"city":"Нефтекамск"},{"code":"1125899906842655","title":"Нижневартовск","kladr_code":"8600001100000","addr":"г.Нижневартовск, ул. Авиаторов, д. 16","coords":{"lat":"60.949400","lng":"76.520610"},"city":"Нижневартовск"},{"code":"2252079008041709","title":"Нижний Бестях","kladr_code":"1401500105800","addr":"677007,Саха,Якутия,г.Якутск,ул.Чернышевского д.107 территория ( Партнер Аква)","coords":{"lat":"61.962540","lng":"129.915649"},"city":"Нижний Бестях"},{"code":"1125899906842649","title":"Нижний Новгород","kladr_code":"5200000100000","addr":"г.Нижний Новгород, ул. Геологов, д. 2«В»","coords":{"lat":"56.244850","lng":"43.988500"},"city":"Нижний Новгород"},{"code":"1125899906842726","title":"Нижний Тагил","kladr_code":"6600002300000","addr":"622000, Свердловская область, г. Нижний Тагил, ул. Индустриальная, д. 20","coords":{"lat":"57.916238","lng":"59.990456"},"city":"Нижний Тагил"},{"code":"2252083329984231","title":"Новая Чара","kladr_code":null,"addr":"","coords":{"lat":"56.816666","lng":"118.300003"},"city":"Новая Чара"},{"code":"1125899906842666","title":"Новокузнецк","kladr_code":"4200001200000","addr":"г.Новокузнецк, ул. Щорса, д. 3а","coords":{"lat":"53.747260","lng":"87.104130"},"city":"Новокузнецк"},{"code":"1125899906842686","title":"Новороссийск","kladr_code":"2300000600000","addr":"г.Новороссийск, ул. Чкалова, д. 48","coords":{"lat":"44.725120","lng":"37.744130"},"city":"Новороссийск"},{"code":"1010005858","title":"Новосибирск-Ногина","kladr_code":"5400000100000","addr":"улица Ногина, 2, Новосибирск, Новосибирская область, Россия, 630001","coords":{"lat":"55.042110","lng":"82.882226"},"city":"Новосибирск"},{"code":"1125899906842630","title":"Новосибирск-Толмачево","kladr_code":"5400000100000","addr":"г. Новосибирск, ул. Толмачевская, д. 43\/1, корп. 19, 630052","coords":{"lat":"54.969820","lng":"82.795710"},"city":"Новосибирск"},{"code":"1125899906842701","title":"Новый Уренгой","kladr_code":"8900000600000","addr":"Новый Уренгой","coords":{"lat":"66.092494","lng":"76.697089"},"city":"Новый Уренгой"},{"code":"2252083292416427","title":"Норильск","kladr_code":null,"addr":"","coords":{"lat":"69.062813","lng":"85.112862"},"city":"Норильск"},{"code":"1125899906842688","title":"Ноябрьск","kladr_code":"8900000700000","addr":"Ноябрьск","coords":{"lat":"63.198847","lng":"75.498658"},"city":"Ноябрьск"},{"code":"1125899906842654","title":"Омск-ПГР","kladr_code":"5500000100000","addr":"644006, г. Омск, ул. Братская 4а","coords":{"lat":"54.949537","lng":"73.392991"},"city":"Омск"},{"code":"1125899906842665","title":"Орел","kladr_code":"5700100100000","addr":"г. Орёл, пер. Силикатный, д. 1","coords":{"lat":"53.010460","lng":"36.106480"},"city":"Орел"},{"code":"1125899906842707","title":"Оренбург","kladr_code":"5600000100000","addr":"проезд Автоматики, 30, Оренбург, Оренбургская область, Россия, 460048","coords":{"lat":"51.805091","lng":"55.158504"},"city":"Оренбург"},{"code":"1125899906842730","title":"Орск","kladr_code":"5600000400000","addr":"г.Орск, Орское шоссе, д. 6","coords":{"lat":"51.239030","lng":"58.483210"},"city":"Орск"},{"code":"1125899906842692","title":"Пенза","kladr_code":"5800000100000","addr":"г. Пенза, ул. Аустрина, д. 63","coords":{"lat":"53.236180","lng":"45.018910"},"city":"Пенза"},{"code":"1125899906842646","title":"Пермь","kladr_code":"5900000100000","addr":"г. Пермь, ул. Норильская 6","coords":{"lat":"57.970871","lng":"56.198416"},"city":"Пермь"},{"code":"1125899906842728","title":"Петрозаводск","kladr_code":"1000000100000","addr":"г.Петрозаводск, ул. Заводская, д. 2","coords":{"lat":"61.816170","lng":"34.310480"},"city":"Петрозаводск"},{"code":"1125899906842705","title":"Петропавловск-Ка","kladr_code":"4100500003500","addr":"г.Петропавловск-Камчатский, ул. Вулканная, д. 29а","coords":{"lat":"53.079490","lng":"158.608930"},"city":"Петропавловск-Камчатский"},{"code":"2252083293455962","title":"Печора","kladr_code":null,"addr":"","coords":{"lat":"65.133331","lng":"57.216667"},"city":"Печора"},{"code":"1125900209899077","title":"Прокопьевск","kladr_code":null,"addr":"В Прокопьевске прием\/выдача груза осуществляется путем адресной автодоставки от грузоотправителя (или до грузополучателя) по предварительному согласованию. Максимальные размеры одного места вес 2500кг. Длинна 5м высота 2м ширина 2м.","coords":{"lat":"53.898030","lng":"86.746420"},"city":"Прокопьевск"},{"code":"1125899906842736","title":"Псков","kladr_code":"6000000100000","addr":"г.Псков, ул. Леона Поземского, д. 110Д","coords":{"lat":"57.833750","lng":"28.307010"},"city":"Псков"},{"code":"1125899906842700","title":"Пятигорск","kladr_code":"2600000700000","addr":"357500, г. Пятигорск, мкр-н Скачки, Промзона-2","coords":{"lat":"44.060190","lng":"43.001470"},"city":"Пятигорск"},{"code":"2252083356727425","title":"Россошь","kladr_code":null,"addr":"309504, Белгородская область, г.Старый Оскол, пр.Комсомольский, 73","coords":{"lat":"50.200001","lng":"39.549999"},"city":"Россошь"},{"code":"1010005954","title":"Ростов-на-Дону-Западный","kladr_code":"6100000100000","addr":"г. Ростов-на-Дону, ул. Каширская, д. 7","coords":{"lat":"47.197790","lng":"39.618210"},"city":"Ростов-на-Дону"},{"code":"1125899906842675","title":"Ростов-на-Дону-Сельмаш","kladr_code":"6100000100000","addr":"г. Ростов-на-Дону, ул. Комбайностроителей, д. 2","coords":{"lat":"47.271508","lng":"39.760050"},"city":"Ростов-на-Дону"},{"code":"1125899906842669","title":"Рубцовск","kladr_code":"2200000900000","addr":"г.Рубцовск, ул. Линейная, д. 2а","coords":{"lat":"51.500840","lng":"81.193910"},"city":"Рубцовск"},{"code":"1125899906842671","title":"Рязань","kladr_code":"6200000100000","addr":"г.Рязань, Московское шоссе, д. 147","coords":{"lat":"54.663010","lng":"39.603210"},"city":"Рязань"},{"code":"1125900206756112","title":"Салават","kladr_code":null,"addr":"","coords":{"lat":"53.366660","lng":"55.933330"},"city":"Салават"},{"code":"1125900191663353","title":"Салехард","kladr_code":"8900000100000","addr":"г.Салехард, мкр.Ангальский мыс, Промзона","coords":{"lat":"66.571156","lng":"66.553653"},"city":"Салехард"},{"code":"1125899906842641","title":"Самара-1","kladr_code":"6300000100000","addr":"г. Самара, Заводское шоссе, д. 15","coords":{"lat":"53.183160","lng":"50.217790"},"city":"Самара"},{"code":"1125899906842631","title":"Санкт-Петербург-1-Кременчугская","kladr_code":"7800000000000","addr":"г. Санкт-Петербург, ул. Кременчугская, д. 25, корп. 4, литера «П»","coords":{"lat":"59.917300","lng":"30.370100"},"city":"Санкт-Петербург"},{"code":"1125899906842716","title":"Саранск","kladr_code":"1300000100000","addr":"г.Саранск, ул. Пролетарская, д. 132","coords":{"lat":"54.200890","lng":"45.178570"},"city":"Саранск"},{"code":"1125899906842699","title":"Саратов","kladr_code":"6400000100000","addr":"г.Саратов, ул. Танкистов, д. 82","coords":{"lat":"51.577260","lng":"46.019160"},"city":"Саратов"},{"code":"2252083355360582","title":"Сатка","kladr_code":null,"addr":"г.Сатка, ул. 18 годовщина Октября, д.43","coords":{"lat":"55.043705","lng":"58.978401"},"city":"Сатка"},{"code":"2252083293455935","title":"Севастополь","kladr_code":null,"addr":"г. Севастополь, ул. Курганная, д. 35А","coords":{"lat":"44.573830","lng":"33.510580"},"city":"Севастополь"},{"code":"1125900178778616","title":"Северодвинск","kladr_code":"2900000400000","addr":"Россия, 153000 Ивановская Область, г. Иваново, пл. Генкиной д.1","coords":{"lat":"64.536827","lng":"39.750908"},"city":"Северодвинск"},{"code":"2252083291723706","title":"Симферополь","kladr_code":null,"addr":"г.Симферополь, ул. Героев Сталинграда, д. 10","coords":{"lat":"44.938590","lng":"34.058600"},"city":"Симферополь"},{"code":"1125900121369130","title":"Сковородино","kladr_code":null,"addr":"676011, г. Сковородино, Первомайская 1а","coords":{"lat":"53.993824","lng":"123.870941"},"city":"Сковородино"},{"code":"1125899906842640","title":"Смоленск","kladr_code":"6700000300000","addr":"г.Смоленск, ул. Бабушкина, д. 1","coords":{"lat":"54.781050","lng":"32.084990"},"city":"Смоленск"},{"code":"2252083356628772","title":"Солнечногорск","kladr_code":null,"addr":"141506 г. Солнечногорск, ул. Лесная д.13","coords":{"lat":"56.185204","lng":"36.977615"},"city":"Солнечногорск"},{"code":"1125899906842694","title":"Сочи","kladr_code":"2300000700000","addr":"г.Сочи, ул. Голенева, д. 36","coords":{"lat":"43.606730","lng":"39.745570"},"city":"Сочи"},{"code":"1125899906842674","title":"Ставрополь","kladr_code":"2600000100000","addr":"г. Ставрополь, ул. Заводская, 11","coords":{"lat":"45.052970","lng":"42.006460"},"city":"Ставрополь"},{"code":"1125900209898687","title":"Старый Оскол","kladr_code":null,"addr":"г. Старый Оскол, микрорайон Макаренко, 29 второе карэ","coords":{"lat":"51.317167","lng":"37.884336"},"city":"Старый Оскол"},{"code":"1125899906842695","title":"Стерлитамак","kladr_code":"0204200100000","addr":"г.Стерлитамак, ул. Элеваторная, д. 25","coords":{"lat":"53.644370","lng":"55.951570"},"city":"Стерлитамак"},{"code":"1125899906842656","title":"Сургут","kladr_code":"8600001000000","addr":"г.Сургут, ул. Линейная, д.28","coords":{"lat":"61.283078","lng":"73.289373"},"city":"Сургут"},{"code":"1125899906842733","title":"Сыктывкар","kladr_code":"1100000100000","addr":"г.Сыктывкар, ул. Станционная, д. 130","coords":{"lat":"61.643990","lng":"50.813420"},"city":"Сыктывкар"},{"code":"1125899906842681","title":"Таганрог","kladr_code":"6100001100000","addr":"347900, г. Таганрог, пл. Марцевский треугольник, д. 2г","coords":{"lat":"47.253820","lng":"38.893320"},"city":"Таганрог"},{"code":"1125899906842713","title":"Тамбов","kladr_code":"6800000400000","addr":"Бригадный проезд, 3, Тамбов, Тамбовская область, Россия, 392036","coords":{"lat":"52.704883","lng":"41.439883"},"city":"Тамбов"},{"code":"1125899906842684","title":"Тверь","kladr_code":"6900000100000","addr":"г.Тверь, Промышленный пр-д, д. 11","coords":{"lat":"56.827010","lng":"35.933730"},"city":"Тверь"},{"code":"1125899906842685","title":"Тольятти","kladr_code":"6300000700000","addr":"г.Тольятти, ул. Коммунальная, д. 31Б, 1-й этаж","coords":{"lat":"53.558960","lng":"49.298350"},"city":"Тольятти"},{"code":"1125899906842645","title":"Томск","kladr_code":"7000000100000","addr":"г.Томск, пер.Офицерский, д. 1","coords":{"lat":"56.509330","lng":"85.002280"},"city":"Томск"},{"code":"1125899906842719","title":"Тула","kladr_code":"7100000100000","addr":"г. Тула, Щегловская засека, д. 31А, кор. 5","coords":{"lat":"54.186440","lng":"37.550680"},"city":"Тула"},{"code":"1125899906842659","title":"Тюмень","kladr_code":"7200000100000","addr":"г.Тюмень, ул. Комбинатская, д. 60, стр. 4","coords":{"lat":"57.171450","lng":"65.482910"},"city":"Тюмень"},{"code":"1125899906842660","title":"Улан-Удэ","kladr_code":"0300000100000","addr":"г.Улан-Удэ, ул. Дальненагорная, д. 62Б","coords":{"lat":"51.824930","lng":"107.613950"},"city":"Улан-Удэ"},{"code":"1125899906842722","title":"Ульяновск","kladr_code":"7300000100000","addr":"г.Ульяновск, ул. Московское шоссе, д. 9а, корп.2","coords":{"lat":"54.301490","lng":"48.294720"},"city":"Ульяновск"},{"code":"2252083293455972","title":"Усинск","kladr_code":null,"addr":"","coords":{"lat":"66.000000","lng":"57.533333"},"city":"Усинск"},{"code":"1125900029544130","title":"Уссурийск","kladr_code":"2500001100000","addr":"г.Уссурийск, ул. Тургенева, д. 145, оф.2","coords":{"lat":"43.821100","lng":"131.963030"},"city":"Уссурийск"},{"code":"1125899906842668","title":"Усть-Илимск","kladr_code":"3800001200000","addr":"г.Усть-Илимск, ул. Энгельса, д. 10","coords":{"lat":"57.928670","lng":"102.724870"},"city":"Усть-Илимск"},{"code":"1125899906842682","title":"Уфа","kladr_code":"0200100100000","addr":"Сельская Богородская улица, 57, Уфа, Республика Башкортостан, Россия, 450027","coords":{"lat":"54.790118","lng":"56.090631"},"city":"Уфа"},{"code":"1125899906842634","title":"Хабаровск","kladr_code":"2700000100000","addr":"г. Хабаровск, пер.Нефтяной, д. 1","coords":{"lat":"48.500889","lng":"135.060127"},"city":"Хабаровск"},{"code":"1125899906842702","title":"Ханты-Мансийск","kladr_code":"8600000100000","addr":"Ханты-Мансийск","coords":{"lat":"60.969254","lng":"69.060356"},"city":"Ханты-Мансийск"},{"code":"2252083355187095","title":"Хасавюрт","kladr_code":null,"addr":"г. Хасавюрт, Аксаевское шоссе, д. 101","coords":{"lat":"43.250000","lng":"46.583332"},"city":"Хасавюрт"},{"code":"1125899906842718","title":"Чайковский","kladr_code":"5900001200000","addr":"г.Чайковский, ул. Промышленная, д. 5\/1, стр.9","coords":{"lat":"56.770470","lng":"54.134030"},"city":"Чайковский"},{"code":"1125899906842679","title":"Чебоксары","kladr_code":"2100000100000","addr":"г.Чебоксары, ул. Б. Хмельницкого, д. 3","coords":{"lat":"56.132760","lng":"47.236750"},"city":"Чебоксары"},{"code":"1125899906842648","title":"Челябинск","kladr_code":"7400000100000","addr":"г.Челябинск, ул. Кулибина, д. 5","coords":{"lat":"55.172730","lng":"61.475020"},"city":"Челябинск"},{"code":"1125899906842732","title":"Череповец","kladr_code":"3500000200000","addr":"г.Вологда, ул. Чехова, д. 44, «Грузовой двор»","coords":{"lat":"59.207181","lng":"39.892421"},"city":"Череповец"},{"code":"2289187505459259","title":"Черкесск","kladr_code":null,"addr":"площадь Гутякулова, Черкесск, Карачаево-Черкесская Республика, Россия, 369009","coords":{"lat":"44.249448","lng":"42.042278"},"city":"Черкесск"},{"code":"1125899906842635","title":"Чита","kladr_code":"7500000100000","addr":"Логовая улица, 55, Чита, Забайкальский край, Россия, 672020","coords":{"lat":"52.008275","lng":"113.483028"},"city":"Чита"},{"code":"1125900209898242","title":"Шарья","kladr_code":null,"addr":"Костромская обл., г. Шарья, ул.Промышленная, д. 6\/2","coords":{"lat":"58.365253","lng":"45.520240"},"city":"Шарья"},{"code":"1125900191635104","title":"Шахты","kladr_code":"6100001200000","addr":"346504, Ростовская область, г. Шахты, пер. Тюменский, д. 112","coords":{"lat":"47.691570","lng":"40.195620"},"city":"Шахты"},{"code":"1125899906842647","title":"Южно-сахалинск","kladr_code":"6500000100000","addr":"г.Южно-Сахалинск, ул. Украинская, д. 72а","coords":{"lat":"46.984120","lng":"142.724230"},"city":"Южно-сахалинск"},{"code":"1125899906842689","title":"Якутск","kladr_code":"1400000100000","addr":"г.Якутск, ул. Автодорожная, д. 4 корпус 9 (территория магазина \"Мебельный дворик\")","coords":{"lat":"62.061226","lng":"129.473337"},"city":"Якутск"},{"code":"1125899906842664","title":"Ярославль","kladr_code":"7600000100000","addr":"г. Ярославль, Тутаевское шоссе д. 6","coords":{"lat":"57.673384","lng":"39.838862"},"city":"Ярославль"}]